Station,Scenario,return_period,mean,5th_percentile,95th_percentile,lat,lon,elev
GGG,SSP585,0.9,5.166907697383057,4.735856973514549,5.987249647838813,32.38401,-94.71149,124.0
5C1,SSP585,0.9,4.611686390425628,4.153988099988619,5.115208937704536,29.72393,-98.69464,422.1
NFW,SSP585,0.9,4.440314183462627,3.805331478789989,4.967678714042679,32.78098,-97.43648,198.0
SNK,SSP585,0.9,3.995422362090056,3.5598749744337126,4.7185452057202575,32.69339,-100.95047,741.0
UVA,SSP585,0.9,4.223141172098822,3.222777099047621,5.849874981658821,29.21133,-99.74358,287.0
BKS,SSP585,0.9,4.371051992729748,3.4842435038416344,5.872668126543489,27.20667,-98.12111,34.0
GDJ,SSP585,0.9,4.795795464127489,4.012946204481929,5.665909471677452,32.44442,-97.81694,237.0
SLR,SSP585,0.9,4.668860868056553,3.8661641527283135,5.705935067070872,33.16,-95.62,149.0
TRL,SSP585,0.9,5.370078901926839,4.750990177502786,6.078504781668918,32.71,-96.27,145.0
PRX,SSP585,0.9,6.2315917127549225,4.934105001994678,7.461377614829789,33.63661,-95.45075,167.0
CLL,SSP585,0.9,5.143959403364771,4.643452189142709,5.693785593100068,30.58806,-96.36389,98.0
LRD,SSP585,0.9,4.393209407959658,3.673128484350417,5.099737385095712,27.5438,-99.46153,155.0
LZZ,SSP585,0.9,4.707241006012123,3.863321909685731,5.396949535915521,31.10619,-98.19589,370.3
11R,SSP585,0.9,4.954617349243597,4.186499888196865,5.864186992223232,30.21889,-96.37417,94.0
SEP,SSP585,0.9,4.794182034291386,3.863002589615452,5.99132022913768,32.21533,-98.17767,402.0
HQZ,SSP585,0.9,4.565059750916902,3.878411081315024,5.385781109049488,32.74696,-96.53042,136.0
JXI,SSP585,0.9,4.491871692941138,3.43871492547458,5.534799341204663,32.7,-94.95,127.0
GDP,SSP585,0.9,3.797497827323108,3.1664181411937697,4.847661586871834,31.83312,-104.80978,1662.0
DFW,SSP585,0.9,4.854719645052323,4.5261681403947245,5.12632746497372,32.89683,-97.038,182.0
LVJ,SSP585,0.9,6.194503601351089,5.20262673923723,7.049813231297829,29.5189,-95.2417,13.164371
PWG,SSP585,0.9,6.209486537334224,4.710677918790615,7.663100927468444,31.48492,-97.31653,180.0
HYI,SSP585,0.9,6.758633299525823,4.612029104571002,9.757128938537086,29.89275,-97.863,182.0
BRO,SSP585,0.9,4.963476795784096,4.519786412353789,5.494315773860204,25.91461,-97.42313,6.0
3T5,SSP585,0.9,4.647634430001154,3.906456615615478,5.687294590618251,29.91,-96.95,99.0
GYB,SSP585,0.9,4.286443002847578,3.6160125766447337,5.404445114760545,30.17,-96.98,148.0
ADS,SSP585,0.9,3.892164198281815,2.702478194297252,5.017072985123899,32.96856,-96.83645,196.0
HLR,SSP585,0.9,5.421708125121708,4.55112547397459,6.51334074438238,31.1387,-97.7145,283.0
AXH,SSP585,0.9,4.721769410309046,4.053133955987895,5.771246010146833,29.50614,-95.47692,20.7
AFW,SSP585,0.9,4.897060681863591,4.2747940432749365,5.51863757883541,32.9716,-97.31788,204.81914
GYI,SSP585,0.9,4.873684416238818,3.919247962054407,6.385765382382664,33.71411,-96.67367,228.0
RAS,SSP585,0.9,4.781327758992212,3.924295674250673,5.893760956226759,27.81,-97.09,2.0
TYR,SSP585,0.9,5.327914457371766,4.72268844446261,6.138715501749246,32.35414,-95.40239,166.0
VCT,SSP585,0.9,5.52456126577898,4.855478962441451,6.06591907385268,28.8614,-96.9303,36.0
COM,SSP585,0.9,4.619583838384122,3.624740289638555,5.359969847877725,31.84114,-99.40361,517.2
6R6,SSP585,0.9,3.798135315222683,3.266139587701937,4.530988949196707,30.04602,-102.21291,702.0
ATT,SSP585,0.9,4.9755401897049625,4.484768964051697,5.340184289203183,30.32081,-97.76042,203.0
FST,SSP585,0.9,3.706009798069743,3.308054482207917,4.122676292506192,30.91194,-102.91667,917.0
UTS,SSP585,0.9,5.543158154463465,4.82345066853862,6.081411424355983,30.74689,-95.58717,112.0
INJ,SSP585,0.9,4.608474248853825,3.7625880087239865,5.215106517727963,32.08361,-97.09722,209.0
ECU,SSP585,0.9,3.972325253515456,3.12553130519358,4.952739119133345,29.94692,-100.17385,723.0
HRX,SSP585,0.9,3.629924533103952,2.9758051954396,5.277138383106241,34.85776,-102.32641,1153.0
JCT,SSP585,0.9,4.534273858990222,4.073299822137286,5.255136039554807,30.51083,-99.76639,522.0
F05,SSP585,0.9,4.174793301148476,3.5802052221768133,4.825584532393713,34.22567,-99.28375,386.0
RPH,SSP585,0.9,4.5253749619452055,3.7871287276577,5.338551776878244,33.11,-98.555,344.0
PIL,SSP585,0.9,5.010320867032672,4.353459249617293,6.324199387567171,26.1597,-97.33781,6.0
RKP,SSP585,0.9,5.448181805602193,4.45862002104139,7.16211109188263,28.08361,-97.04639,8.0
T82,SSP585,0.9,4.808256721194436,4.1506076765167,5.713492439419485,30.24325,-98.90919,517.0
PEZ,SSP585,0.9,4.361186941149339,3.463765155422415,4.943219848528486,28.95419,-98.51998,131.1
SJT,SSP585,0.9,4.32576616244783,3.803334097762323,4.791440763118535,31.35167,-100.495,582.0
AQO,SSP585,0.9,4.150463869049167,3.5612339271714566,4.902464385375143,30.78361,-98.66194,336.0
LUD,SSP585,0.9,4.716707721012496,3.937430706285851,5.592222927947361,33.25425,-97.5805,319.0
PYX,SSP585,0.9,3.8413061428133215,3.0888343778262923,4.660890970836189,36.414,-100.75,889.0
GPM,SSP585,0.9,4.05218644174075,3.1512434344761204,4.95586703515688,32.69878,-97.04692,180.0
BPC,SSP585,0.9,3.7057158047146856,3.0711953315542875,4.886842246593759,35.88928,-101.03014,845.0
BKD,SSP585,0.9,4.143348588931492,3.538863723468185,5.009184963011046,32.71905,-98.891,391.4
PSX,SSP585,0.9,5.661253682443347,4.97214418492548,6.375726084672604,28.73,-96.25,5.0
COT,SSP585,0.9,4.815422151269198,4.093046332662146,5.892947204239948,28.45667,-99.21833,144.0
CRP,SSP585,0.9,5.397609799436258,4.770961838889101,6.046760786353459,27.77306,-97.51278,13.0
GOP,SSP585,0.9,4.85514437167888,3.9585907922301793,6.017871876027947,31.42128,-97.79697,276.0
SWW,SSP585,0.9,4.311955143818831,3.61809951171736,5.434162823558885,32.46736,-100.46656,727.0
MAF,SSP585,0.9,3.8646450185148735,3.586554039824726,4.221951897207068,31.94662,-102.20745,868.9406
MCJ,SSP585,0.9,4.99641623708644,4.076621842785565,5.70462692267956,29.714,-95.395,22.525835
ERV,SSP585,0.9,5.204075142645122,4.042178401093125,7.295731206976319,29.97667,-99.08547,493.0
JDD,SSP585,0.9,4.303712477812543,3.53566992123144,5.150571877668636,32.7422,-95.49648,132.0
MKN,SSP585,0.9,4.983510071607724,3.974506553509418,6.415496253481207,31.92,-98.6,423.0
MNZ,SSP585,0.9,4.400716705297034,3.3994643358181045,5.554649556100592,31.66593,-98.14864,395.9
RWV,SSP585,0.9,5.8701366372041335,4.258676376386132,9.173404137003494,30.51547,-96.70409,119.0
SSF,SSP585,0.9,5.13122567408345,4.376497529207104,6.0292350598780455,29.33698,-98.47105,176.0
HOU,SSP585,0.9,6.10739090119574,5.156257115622142,7.390204314464218,29.63747,-95.28245,14.0
LBB,SSP585,0.9,4.308639374082615,3.7564030470976033,5.613652483942012,33.66364,-101.82278,988.0
NGP,SSP585,0.9,5.2803753379797085,4.739154625979728,6.022944728181937,27.69263,-97.29109,6.0
6R3,SSP585,0.9,5.664221800175032,4.708926219925239,6.902075825752487,30.35644,-95.008,45.7
FTN,SSP585,0.9,4.412762149542599,3.891613215305515,5.224536292242335,28.2086,-100.0188,236.0
FTW,SSP585,0.9,4.744817780711208,4.315095515509912,5.129717113937239,32.81978,-97.36244,216.0
ALI,SSP585,0.9,5.0474873227640895,4.262289076647135,6.05422382829871,27.74089,-98.02694,54.0
BEA,SSP585,0.9,4.113404492021231,3.140072704740981,5.14904339925894,28.36187,-97.79103,81.7
ELP,SSP585,0.9,3.2669132094819275,2.9377973965270385,3.6750144919289287,31.81111,-106.37583,1194.0
JWY,SSP585,0.9,4.573254778852733,3.5944608665182693,5.341612981320822,32.45611,-96.9125,217.0
MRF,SSP585,0.9,5.418183361900681,3.3840050894628577,10.142462054587996,30.37,-104.02,1481.0
SGR,SSP585,0.9,5.606370970649341,5.065463172497395,6.130544526182328,29.62225,-95.65653,2.0
PSN,SSP585,0.9,4.839468104339282,4.15263953225518,5.787728956645839,31.77969,-95.70631,129.0
DAL,SSP585,0.9,5.079445757483669,4.439850941670448,5.949975107591142,32.84711,-96.85178,148.0
CWC,SSP585,0.9,4.053700245385671,3.287330418449839,4.76467992378582,33.85784,-98.4904,304.0
MDD,SSP585,0.9,3.731811493349812,3.2379282364189894,4.306953864164505,32.03653,-102.10103,854.0
IAH,SSP585,0.9,6.070125390539173,5.185704960531108,7.16115587298771,29.9844,-95.3607,28.0
APY,SSP585,0.9,3.826152873178281,3.030372626981602,4.398445979328117,26.96879,-99.24891,128.6
PKV,SSP585,0.9,5.422380245606787,4.33255242598672,7.254736459680449,28.654,-96.681,9.0
DUX,SSP585,0.9,3.5392074275390835,3.115597056368635,4.398362441848199,35.858,-102.013,1129.0
DTO,SSP585,0.9,5.124164547964568,4.646486068873245,5.811830143343231,33.205,-97.2006,200.71758
OCH,SSP585,0.9,6.750640725291857,5.325904904806129,7.907508831086105,31.57778,-94.70944,108.0
CRS,SSP585,0.9,5.296112244732358,4.7822235982066505,5.871419049995334,32.03,-96.4,137.0
HBV,SSP585,0.9,4.201911774493749,3.345024516888852,5.338412745018517,27.34956,-98.73694,202.0
XBP,SSP585,0.9,4.804770497458129,3.958148652488783,5.835045996265922,33.17533,-97.82839,259.7
LBX,SSP585,0.9,5.624651137571799,4.923036797382293,6.474720619704277,29.10864,-95.46208,8.0
RFI,SSP585,0.9,5.192944029815578,4.275490685981119,6.891428124268709,32.14172,-94.85172,134.7
PEQ,SSP585,0.9,3.577167718092944,2.954337460379495,4.276170662023953,31.38,-103.51,796.0
GLE,SSP585,0.9,4.803550044121811,4.103083147956687,5.510800851032114,33.65139,-97.19694,256.0
NQI,SSP585,0.9,4.50474808133758,3.750853657697383,5.249801408523069,27.5072,-97.8097,15.0
PVW,SSP585,0.9,3.7489173760787233,2.971777824870005,4.871152688593347,34.16815,-101.71734,1028.0
NOG,SSP585,0.9,4.930308122572983,4.20666456711448,5.97786732830401,27.90113,-98.05167,78.0
HDO,SSP585,0.9,5.094055420792035,4.352318110266312,5.921129987400423,29.35944,-99.17417,283.0
JSO,SSP585,0.9,4.885658491520591,3.8986458790405023,6.030271581540933,31.87,-95.22,206.0
FWS,SSP585,0.9,4.35178614520836,3.135284446358601,5.179281972451574,32.57297,-97.30332,208.02596
GTU,SSP585,0.9,6.062267342374637,4.669033648643179,7.388910981239938,30.68083,-97.67666,240.0
HRL,SSP585,0.9,5.073657015246417,4.452095220060784,5.883439181272716,26.2285,-97.65439,11.0
SPS,SSP585,0.9,4.784070067580992,4.236878870317272,5.388229350512391,33.9786,-98.4928,314.0
CVB,SSP585,0.9,4.3936651012802015,3.882181944460983,5.02592584156915,29.34192,-98.8509,235.0
DHT,SSP585,0.9,3.4881099177182127,3.17569318042178,3.757386082886368,36.02259,-102.54728,1216.0
SAT,SSP585,0.9,5.3335481920527865,4.543210691431151,6.418176248770626,29.53369,-98.46978,242.0
BPG,SSP585,0.9,3.829924282254946,3.286232063868145,4.476248773140575,32.21261,-101.52164,784.0
EBG,SSP585,0.9,4.105274009266315,3.45754353458426,5.054318334712621,26.44167,-98.12222,24.0
BMQ,SSP585,0.9,4.884673634612245,4.246038942018799,5.380736487980939,30.73893,-98.23861,389.0
RBD,SSP585,0.9,5.14365030892535,4.3319426285891005,5.983494723700639,32.68,-96.87,201.0
ORG,SSP585,0.9,5.530531978029914,4.52882293681033,6.764050735052087,30.06918,-93.80361,4.0
TPL,SSP585,0.9,5.787449321779586,4.530158581785351,7.102439927645523,31.1525,-97.40778,208.0
E38,SSP585,0.9,3.4346483366826845,2.8317605535333867,3.878960190070552,30.384,-103.684,1376.0
OZA,SSP585,0.9,4.237607615472392,3.15219456118354,5.911225256212858,30.73528,-101.20297,725.7
JAS,SSP585,0.9,5.661176473540996,4.676523064878533,6.6163315512860486,30.88569,-94.03494,65.0
AUS,SSP585,0.9,4.919534492022441,4.415090706108154,5.526124820980685,30.19453,-97.66989,189.0
DWH,SSP585,0.9,5.852474470143188,4.986078801166489,6.857906292739868,30.06803,-95.55624,46.0
GNC,SSP585,0.9,3.900059419058025,3.425149111526133,4.530335154632187,32.67533,-102.65267,1010.0
CDS,SSP585,0.9,4.157588357213582,3.6928333476787127,4.507048547743164,34.43389,-100.28806,595.0
CXO,SSP585,0.9,6.2110714505648605,5.191012645134355,7.391916751276797,30.35236,-95.41453,75.0
DRT,SSP585,0.9,5.030928460602494,4.036426674179968,6.565702696824942,29.37421,-100.92716,307.0
TKI,SSP585,0.9,5.097219748473934,4.451687974653545,5.748770128027759,33.18,-96.59,179.0
GLS,SSP585,0.9,5.663510834270906,5.194472709606168,6.919043008664344,29.26533,-94.86042,16.0
INK,SSP585,0.9,3.6718375773134495,3.275994463037378,4.056626147365778,31.78,-103.2,859.0
BPT,SSP585,0.9,6.522005881736848,5.721919879517162,7.207369794276468,29.95206,-94.02614,4.5784636
LFK,SSP585,0.9,5.200303896240669,4.718071656401973,5.684352259689932,31.23401,-94.75,88.0
BYY,SSP585,0.9,4.65545864828453,3.847120316056332,5.511565512612691,28.97325,-95.86344,14.0
0F2,SSP585,0.9,4.835202937604386,3.967532919484741,6.436684647141386,33.60167,-97.77556,335.6
EDC,SSP585,0.9,4.680165010355149,3.8042752340373855,5.431152181145536,30.39255,-97.56213,187.5
BAZ,SSP585,0.9,5.167206814068074,4.603430214047583,6.228854753948767,29.709,-98.045,195.0
LHB,SSP585,0.9,4.907955055931246,4.378479558927282,5.630689577872468,30.87,-96.62,87.0
HHF,SSP585,0.9,3.942613337804692,3.350050639368715,4.705161589724047,35.895,-100.404,730.0
ABI,SSP585,0.9,4.803290571192486,4.0483836236473705,5.458610610265337,32.41063,-99.68209,544.9975
DZB,SSP585,0.9,4.572908608924946,3.929738496603467,5.216297441050624,30.52705,-98.35876,333.0
MFE,SSP585,0.9,4.415774356217647,3.767017417861168,4.981011236845313,26.17583,-98.23861,33.0
ACT,SSP585,0.9,5.175041383137911,4.725133342842351,5.708836723486813,31.61797,-97.2283,155.0
GVT,SSP585,0.9,4.402966607493375,3.583292270150176,5.238513882323756,33.06784,-96.06533,163.0
GKY,SSP585,0.9,5.362420464309218,4.580729376864304,6.178329440738955,32.66386,-97.09428,192.0
RYW,SSP585,0.9,4.432305386795557,3.658371581486868,5.101818376178135,30.4967,-97.96589,375.2
MWL,SSP585,0.9,4.688944147920221,3.875398475801972,5.514983081995833,32.78161,-98.06018,296.0
RBO,SSP585,0.9,4.381380497891383,3.456880674114334,5.599158902601699,27.77854,-97.69052,24.0
AMA,SSP585,0.9,4.327155960089676,3.71580367717832,5.386739516848969,35.21936,-101.70592,1099.0
OSA,SSP585,0.9,4.731020910672801,4.072763890303402,5.518908894760085,33.09556,-94.96139,111.0
ODO,SSP585,0.9,3.672387460274847,3.2544336193245047,4.011709691062924,31.92056,-102.38667,915.0
